{
  "linecolor":"#80FFFF",
  "marker":[
    {"type":"JCT","pname":"北上","lat":39.274117,"lng":141.076233},
    {"type":"IC","pname":"北上西","lat":39.291785,"lng":140.98447},
    {"type":"IC","pname":"湯田","lat":39.313468,"lng":140.747252},
    {"type":"IC","pname":"横手","lat":39.279324,"lng":140.54661},
    {"type":"IC","pname":"大曲","lat":39.426775,"lng":140.425023},
    {"type":"IC","pname":"西仙北","lat":39.539334,"lng":140.324762},
    {"type":"IC","pname":"協和","lat":39.596233,"lng":140.282844},
    {"type":"JCT","pname":"河辺","lat":39.64024,"lng":140.211312},
    {"type":"IC","pname":"秋田南","lat":39.659902,"lng":140.191332},
    {"type":"IC","pname":"秋田中央","lat":39.722205,"lng":140.181242},
    {"type":"IC","pname":"秋田北","lat":39.781648,"lng":140.112996},
    {"type":"IC","pname":"昭和男鹿半島","lat":39.85907,"lng":140.071255},
    {"type":"IC","pname":"五城目八郎潟","lat":39.948121,"lng":140.096999},
    {"type":"IC","pname":"琴丘森岳","lat":40.033028,"lng":140.088427},
    {"type":"IC","pname":"八竜","lat":40.118109,"lng":140.011324},
    {"type":"IC","pname":"能代南","lat":40.153765,"lng":140.022705}
  ]
}
