{
  "linecolor":"#008000",
  "marker":[
{"type":"IC","pname":"大竹","lat":34.243692,"lng":132.216457},
{"type":"IC","pname":"岩国","lat":34.176381,"lng":132.166589},
{"type":"IC","pname":"玖珂","lat":34.083292,"lng":132.083948},
{"type":"IC","pname":"熊毛","lat":34.035042,"lng":131.971596},
{"type":"IC","pname":"徳山東","lat":34.045668,"lng":131.852409},
{"type":"IC","pname":"徳山西","lat":34.069223,"lng":131.686404},
{"type":"IC","pname":"防府東","lat":34.072231,"lng":131.561987},
{"type":"IC","pname":"防府西","lat":34.056093,"lng":131.537845},
{"type":"IC","pname":"山口南","lat":34.0876,"lng":131.463899},
{"type":"JCT","pname":"山口","lat":34.132144,"lng":131.447623}
]
}
