{
  "marker":[
    {"id":"01","lakename":"琵琶湖","lat":35.265804,"lng":136.104126},
    {"id":"02","lakename":"霞ヶ浦","lat":36.03855,"lng":140.403557},
    {"id":"03","lakename":"サロマ湖","lat":44.137377,"lng":143.797989},
    {"id":"04","lakename":"猪苗代湖","lat":37.47731,"lng":140.09388},
    {"id":"05","lakename":"中海","lat":35.472973,"lng":133.192749},
    {"id":"06","lakename":"屈斜路湖","lat":43.621538,"lng":144.318638},
    {"id":"07","lakename":"宍道湖","lat":35.447805,"lng":132.951736},
    {"id":"08","lakename":"支笏湖","lat":42.756844,"lng":141.319027},
    {"id":"09","lakename":"洞爺湖","lat":42.601367,"lng":140.856915},
    {"id":"10","lakename":"浜名湖","lat":34.747819,"lng":137.573204},
    {"id":"11","lakename":"小川原湖","lat":40.785481,"lng":141.328468},
    {"id":"12","lakename":"十和田湖","lat":40.465495,"lng":140.883179},
    {"id":"13","lakename":"能取湖","lat":44.057986,"lng":144.146976},
    {"id":"14","lakename":"風蓮湖","lat":43.296199,"lng":145.335732},
    {"id":"15","lakename":"北浦","lat":36.013005,"lng":140.570068},
    {"id":"16","lakename":"網走湖","lat":43.963415,"lng":144.174614},
    {"id":"17","lakename":"厚岸湖","lat":43.046813,"lng":144.894733},
    {"id":"18","lakename":"八郎潟","lat":39.916583,"lng":140.009766},
    {"id":"19","lakename":"田沢湖","lat":39.725673,"lng":140.663452},
    {"id":"20","lakename":"摩周湖","lat":43.581634,"lng":144.533215},
    {"id":"21","lakename":"十三湖","lat":41.028089,"lng":140.356693},
    {"id":"22","lakename":"クッチャロ湖","lat":45.136221,"lng":142.328568},
    {"id":"23","lakename":"諏訪湖","lat":36.049654,"lng":138.083725},
    {"id":"24","lakename":"阿寒湖","lat":43.454165,"lng":144.097538},
    {"id":"25","lakename":"中禅寺湖","lat":36.74081,"lng":139.46311},
    {"id":"26","lakename":"印旛沼","lat":35.800272,"lng":140.251551},
    {"id":"27","lakename":"池田湖","lat":31.235702,"lng":130.56118},
    {"id":"28","lakename":"桧原湖","lat":37.67825,"lng":140.056458},
    {"id":"29","lakename":"涸沼","lat":36.276801,"lng":140.507927},
    {"id":"30","lakename":"濤沸湖","lat":43.935082,"lng":144.394855}
  ]
}
