{"marker":[
{"id":"T01","sta":"中野駅","url":"http://www.tokyometro.jp/rosen/eki/nakano/index.html","addr":"東京都中野区中野5-31-1","lat":35.706035,"lng":139.665654},
{"id":"T02","sta":"落合駅","url":"http://www.tokyometro.jp/rosen/eki/ochiai/index.html","addr":"東京都新宿区上落合2-13-7","lat":35.710975,"lng":139.687286},
{"id":"T03","sta":"高田馬場駅","url":"http://www.tokyometro.jp/rosen/eki/takadanobaba/index.html","addr":"東京都新宿区高田馬場1-35-2","lat":35.712288,"lng":139.703787},
{"id":"T04","sta":"早稲田駅","url":"http://www.tokyometro.jp/rosen/eki/waseda/index.html","addr":"東京都新宿区早稲田南町12","lat":35.705724,"lng":139.721316},
{"id":"T05","sta":"神楽坂駅","url":"http://www.tokyometro.jp/rosen/eki/kagurazaka/index.html","addr":"東京都新宿区矢来町112","lat":35.703794,"lng":139.734547},
{"id":"T06","sta":"飯田橋駅","url":"http://www.tokyometro.jp/rosen/eki/iidabashi/index.html","addr":"東京都新宿区神楽坂1-13","lat":35.702071,"lng":139.745016},
{"id":"T07","sta":"九段下駅","url":"http://www.tokyometro.jp/rosen/eki/kudanshita/index.html","addr":"東京都千代田区九段南1-6-1","lat":35.695591,"lng":139.751952},
{"id":"T08","sta":"竹橋駅","url":"http://www.tokyometro.jp/rosen/eki/takebashi/index.html","addr":"東京都千代田区一ツ橋1-1-1","lat":35.690662,"lng":139.75682},
{"id":"T09","sta":"大手町駅","url":"http://www.tokyometro.jp/rosen/eki/otemachi/index.html","addr":"東京都千代田区大手町1-6-1","lat":35.684795,"lng":139.766082},
{"id":"T10","sta":"日本橋駅","url":"http://www.tokyometro.jp/rosen/eki/nihombashi/index.html","addr":"東京都中央区日本橋1-3-11","lat":35.682407,"lng":139.773919},
{"id":"T11","sta":"茅場町駅","url":"http://www.tokyometro.jp/rosen/eki/kayabacho/index.html","addr":"東京都中央区日本橋茅場町1-4-6","lat":35.679753,"lng":139.780008},
{"id":"T12","sta":"門前仲町駅","url":"http://www.tokyometro.jp/rosen/eki/monzen-nakacho/index.html","addr":"東京都江東区門前仲町1-4-8","lat":35.671851,"lng":139.796214},
{"id":"T13","sta":"木場駅","url":"http://www.tokyometro.jp/rosen/eki/kiba/index.html","addr":"東京都江東区木場5-5-1","lat":35.669354,"lng":139.807039},
{"id":"T14","sta":"東陽町駅","url":"http://www.tokyometro.jp/rosen/eki/toyocho/index.html","addr":"東京都江東区東陽4-2-1","lat":35.669626,"lng":139.817601},
{"id":"T15","sta":"南砂町駅","url":"http://www.tokyometro.jp/rosen/eki/minami-sunamachi/index.html","addr":"東京都江東区南砂3-11-85","lat":35.668796,"lng":139.830653},
{"id":"T16","sta":"西葛西駅","url":"http://www.tokyometro.jp/rosen/eki/nishi-kasai/index.html","addr":"東京都江戸川区西葛西6-14-1","lat":35.664531,"lng":139.859369},
{"id":"T17","sta":"葛西駅","url":"http://www.tokyometro.jp/rosen/eki/kasai/index.html","addr":"東京都江戸川区中葛西5-43-11","lat":35.663525,"lng":139.872691},
{"id":"T18","sta":"浦安駅","url":"http://www.tokyometro.jp/rosen/eki/urayasu/index.html","addr":"千葉県浦安市北栄1-13-1","lat":35.665745,"lng":139.892939},
{"id":"T19","sta":"南行徳駅","url":"http://www.tokyometro.jp/rosen/eki/minami-gyotoku/index.html","addr":"千葉県市川市相之川4-17-1","lat":35.672687,"lng":139.902314},
{"id":"T20","sta":"行徳駅","url":"http://www.tokyometro.jp/rosen/eki/gyotoku/index.html","addr":"千葉県市川市行徳駅前2-4-1","lat":35.682562,"lng":139.914233},
{"id":"T21","sta":"妙典駅","url":"http://www.tokyometro.jp/rosen/eki/myoden/index.html","addr":"千葉県市川市富浜1-2-10","lat":35.691618,"lng":139.925035},
{"id":"T22","sta":"原木中山駅","url":"http://www.tokyometro.jp/rosen/eki/baraki-nakayama/index.html","addr":"千葉県船橋市本中山7-7-1","lat":35.703202,"lng":139.941879},
{"id":"T23","sta":"西船橋駅","url":"http://www.tokyometro.jp/rosen/eki/nishi-funabashi/index.html","addr":"千葉県船橋市西船4-27-7","lat":35.707456,"lng":139.959099}
]
}
