{"marker":[
{"id":"S01","sta":"新宿駅","url":"http://www.kotsu.metro.tokyo.jp/subway/stations/shinjuku/s01.html","addr":"東京都新宿区西新宿1-18","lat":35.690923,"lng":139.70026},
{"id":"S02","sta":"新宿三丁目駅","url":"http://www.kotsu.metro.tokyo.jp/subway/stations/shinjuku-sanchome/s02.html","addr":"東京都新宿区新宿3-3-2","lat":35.690618,"lng":139.706271},
{"id":"S03","sta":"曙橋駅","url":"http://www.kotsu.metro.tokyo.jp/subway/stations/akebonobashi/s03.html","addr":"東京都新宿区住吉町7-1","lat":35.692406,"lng":139.722877},
{"id":"S04","sta":"市ヶ谷駅","url":"http://www.kotsu.metro.tokyo.jp/subway/stations/ichigaya/s04.html","addr":"東京都千代田区九段南4-8-22","lat":35.691012,"lng":139.735585},
{"id":"S05","sta":"九段下駅","url":"http://www.kotsu.metro.tokyo.jp/subway/stations/kudanshita/s05.html","addr":"東京都千代田区九段北1-13-19","lat":35.695589,"lng":139.751949},
{"id":"S06","sta":"神保町駅","url":"http://www.kotsu.metro.tokyo.jp/subway/stations/jimbocho/s06.html","addr":"東京都千代田区神田神保町2-7","lat":35.695498,"lng":139.758121},
{"id":"S07","sta":"小川町駅","url":"http://www.kotsu.metro.tokyo.jp/subway/stations/ogawamachi/s07.html","addr":"東京都千代田区神田小川町1-6","lat":35.695232,"lng":139.767463},
{"id":"S08","sta":"岩本町駅","url":"http://www.kotsu.metro.tokyo.jp/subway/stations/iwamotocho/s08.html","addr":"東京都千代田区神田岩本町1","lat":35.695541,"lng":139.775872},
{"id":"S09","sta":"馬喰横山駅","url":"http://www.kotsu.metro.tokyo.jp/subway/stations/bakuro-yokoyama/s09.html","addr":"東京都中央区日本橋横山町4-13","lat":35.692121,"lng":139.782778},
{"id":"S10","sta":"浜町駅","url":"http://www.kotsu.metro.tokyo.jp/subway/stations/hamacho/s10.html","addr":"東京都中央区日本橋浜町2-59-3","lat":35.688514,"lng":139.788156},
{"id":"S11","sta":"森下駅","url":"http://www.kotsu.metro.tokyo.jp/subway/stations/morishita/s11.html","addr":"東京都江東区森下1-13-10","lat":35.68796,"lng":139.797045},
{"id":"S12","sta":"菊川駅","url":"http://www.kotsu.metro.tokyo.jp/subway/stations/kikukawa/s12.html","addr":"東京都墨田区菊川3-16-2","lat":35.688383,"lng":139.806014},
{"id":"S13","sta":"住吉駅","url":"http://www.kotsu.metro.tokyo.jp/subway/stations/sumiyoshi/s13.html","addr":"東京都江東区住吉2-23-12","lat":35.689069,"lng":139.815651},
{"id":"S14","sta":"西大島駅","url":"http://www.kotsu.metro.tokyo.jp/subway/stations/nishi-ojima/s14.html","addr":"東京都江東区大島2-41-19","lat":35.689346,"lng":139.826211},
{"id":"S15","sta":"大島駅","url":"http://www.kotsu.metro.tokyo.jp/subway/stations/ojima/s15.html","addr":"東京都江東区大島5-10-8","lat":35.689912,"lng":139.83565},
{"id":"S16","sta":"東大島駅","url":"http://www.kotsu.metro.tokyo.jp/subway/stations/higashi-ojima/s16.html","addr":"東京都江東区大島9-3-14","lat":35.690344,"lng":139.845958},
{"id":"S17","sta":"船堀駅","url":"http://www.kotsu.metro.tokyo.jp/subway/stations/funabori/s17.html","addr":"東京都江戸川区船堀3-6-1","lat":35.683745,"lng":139.864315},
{"id":"S18","sta":"一之江駅","url":"http://www.kotsu.metro.tokyo.jp/subway/stations/ichinoe/s18.html","addr":"東京都江戸川区春江町4-2","lat":35.686052,"lng":139.882929},
{"id":"S19","sta":"瑞江駅","url":"http://www.kotsu.metro.tokyo.jp/subway/stations/mizue/s19.html","addr":"東京都江戸川区瑞江2-2-1","lat":35.693321,"lng":139.897612},
{"id":"S20","sta":"篠崎駅","url":"http://www.kotsu.metro.tokyo.jp/subway/stations/shinozaki/s20.html","addr":"東京都江戸川区篠崎町7-27-1","lat":35.706016,"lng":139.903698},
{"id":"S21","sta":"本八幡駅","url":"http://www.kotsu.metro.tokyo.jp/subway/stations/motoyawata/s21.html","addr":"千葉県市川市八幡2-16-13","lat":35.720842,"lng":139.927441}
]
}
