{
  "marker":[
    {"id":"A01","sta":"西馬込","url":"http://www.kotsu.metro.tokyo.jp/subway/stations/nishi-magome/a01.html","addr":"東京都大田区西馬込2-1-6","lat":35.586859,"lng":139.705941},
    {"id":"A02","sta":"馬込駅","url":"http://www.kotsu.metro.tokyo.jp/subway/stations/magome/a02.html","addr":"東京都大田区北馬込2-31-9","lat":35.596435,"lng":139.711772},
    {"id":"A03","sta":"中延駅","url":"http://www.kotsu.metro.tokyo.jp/subway/stations/nakanobu/a03.html","addr":"東京都品川区東中延2-9-12","lat":35.605387,"lng":139.71362},
    {"id":"A04","sta":"戸越駅","url":"http://www.kotsu.metro.tokyo.jp/subway/stations/togoshi/a04.html","addr":"東京都品川区戸越3-4-17","lat":35.614637,"lng":139.716496},
    {"id":"A05","sta":"五反田駅","url":"http://www.kotsu.metro.tokyo.jp/subway/stations/gotanda/a05.html","addr":"東京都品川区東五反田1-26-2","lat":35.626446,"lng":139.723442},
    {"id":"A06","sta":"高輪台駅","url":"http://www.kotsu.metro.tokyo.jp/subway/stations/takanawadai/a06.html","addr":"東京都港区白金台2-26-7","lat":35.631676,"lng":139.730304},
    {"id":"A07","sta":"泉岳寺駅","url":"http://www.kotsu.metro.tokyo.jp/subway/stations/sengakuji/a07.html","addr":"東京都港区高輪2-16-34","lat":35.638696,"lng":139.740016},
    {"id":"A08","sta":"三田駅","url":"http://www.kotsu.metro.tokyo.jp/subway/stations/mita/a08.html","addr":"東京都港区芝5-34-10","lat":35.648182,"lng":139.748776},
    {"id":"A09","sta":"大門駅","url":"http://www.kotsu.metro.tokyo.jp/subway/stations/daimon/a09.html","addr":"東京都港区浜松町1-27-12","lat":35.656786,"lng":139.754661},
    {"id":"A10","sta":"新橋駅","url":"http://www.kotsu.metro.tokyo.jp/subway/stations/shimbashi/a10.html","addr":"東京都港区新橋2-21-1","lat":35.665495,"lng":139.759644},
    {"id":"A11","sta":"東銀座駅","url":"http://www.kotsu.metro.tokyo.jp/subway/stations/higashi-ginza/a11.html","addr":"東京都中央区銀座4-10-10","lat":35.669465,"lng":139.767259},
    {"id":"A12","sta":"宝町駅","url":"http://www.kotsu.metro.tokyo.jp/subway/stations/takaracho/a12.html","addr":"東京都中央区京橋2-13-11","lat":35.675463,"lng":139.771765},
    {"id":"A13","sta":"日本橋駅","url":"http://www.kotsu.metro.tokyo.jp/subway/stations/nihombashi/a13.html","addr":"東京都中央区日本橋1-13-1","lat":35.682411,"lng":139.773924},
    {"id":"A14","sta":"人形町駅","url":"http://www.kotsu.metro.tokyo.jp/subway/stations/ningyocho/a14.html","addr":"東京都中央区日本橋人形町3-7-13","lat":35.686307,"lng":139.782285},
    {"id":"A15","sta":"東日本橋駅","url":"http://www.kotsu.metro.tokyo.jp/subway/stations/higashi-nihombashi/a15.html","addr":"東京都中央区東日本橋3-11-8","lat":35.692123,"lng":139.784822},
    {"id":"A16","sta":"浅草橋駅","url":"http://www.kotsu.metro.tokyo.jp/subway/stations/asakusabashi/a16.html","addr":"東京都台東区浅草橋1-18-11","lat":35.697552,"lng":139.785992},
    {"id":"A17","sta":"蔵前駅","url":"http://www.kotsu.metro.tokyo.jp/subway/stations/kuramae/a17.html","addr":"東京都台東区蔵前2-3-1","lat":35.703237,"lng":139.790935},
    {"id":"A18","sta":"浅草駅","url":"http://www.kotsu.metro.tokyo.jp/subway/stations/asakusa/a18.html","addr":"東京都台東区駒形1-12-14","lat":35.708941,"lng":139.796568},
    {"id":"A19","sta":"本所吾妻橋駅","url":"http://www.kotsu.metro.tokyo.jp/subway/stations/honjo-azumabashi/a19.html","addr":"東京都墨田区吾妻橋3-7-16","lat":35.708579,"lng":139.804625},
    {"id":"A20","sta":"押上駅","url":"http://www.kotsu.metro.tokyo.jp/subway/stations/oshiage/a20.html","addr":"東京都墨田区押上1-10-2","lat":35.710701,"lng":139.812937}
  ]
}
